City_ID,City,Country,Lat,Lng,Max Temp,Humidity,Cloudiness,Wind Speed,Current Description
0,Mataura,NZ,-46.1927,168.8643,53.47,95,100,4.38,overcast clouds
1,Tilichiki,RU,60.4667,166.1,-15.32,88,12,8.86,few clouds
2,Porto Novo,BJ,6.4965,2.6036,78.87,84,19,6.87,few clouds
3,Jamestown,US,42.097,-79.2353,21.29,79,100,10.36,overcast clouds
4,Bonfim,BR,3.0833,-59.95,82.67,58,88,9.28,overcast clouds
5,Thompson,CA,55.7435,-97.8558,-16.11,94,10,3.24,clear sky
6,Aykhal,RU,66.0,111.5,-8.97,81,69,4.16,broken clouds
7,Busselton,AU,-33.65,115.3333,64.04,60,0,12.73,clear sky
8,Beyneu,KZ,45.3167,55.2,38.66,83,98,8.68,overcast clouds
9,Hithadhoo,MV,-0.6,73.0833,81.18,70,100,11.63,overcast clouds
10,Hamilton,US,39.1834,-84.5333,29.08,76,100,9.22,overcast clouds
11,Yar-Sale,RU,66.8333,70.8333,-9.58,93,98,15.95,overcast clouds
12,Alofi,NU,-19.0595,-169.9187,81.48,75,32,17.67,scattered clouds
13,Leningradskiy,RU,69.3833,178.4167,-17.81,95,94,4.41,overcast clouds
14,Rafai,CF,4.95,23.9167,70.84,37,78,2.15,broken clouds
15,Punta Arenas,CL,-53.15,-70.9167,53.11,58,78,4.79,broken clouds
16,Vaini,TO,-21.2,-175.2,80.96,77,53,17.13,broken clouds
17,Mar Del Plata,AR,-38.0023,-57.5575,63.09,75,20,7.0,few clouds
18,East London,ZA,-33.0153,27.9116,75.34,89,2,8.03,clear sky
19,Raha,IN,26.2333,92.5167,54.7,85,0,4.25,clear sky
20,Constitucion,CL,-35.3333,-72.4167,60.82,82,1,7.0,clear sky
21,Kapaa,US,22.0752,-159.319,79.12,68,75,12.66,broken clouds
22,Shimoda,JP,34.6667,138.95,44.1,90,98,7.0,overcast clouds
23,Cape Town,ZA,-33.9258,18.4232,69.89,76,100,1.01,overcast clouds
24,Pedernales,DO,18.0384,-71.744,78.4,69,2,14.74,clear sky
25,New Norfolk,AU,-42.7826,147.0587,77.67,34,97,4.47,overcast clouds
26,Hobart,AU,-42.8794,147.3294,78.03,44,75,17.27,broken clouds
27,Auch,FR,43.65,0.5833,48.22,65,79,7.0,broken clouds
28,Saint George,US,37.1041,-113.5841,70.27,11,0,0.0,clear sky
29,Cherskiy,RU,68.75,161.3,-18.33,97,100,10.29,overcast clouds
30,Geraldton,AU,-28.7667,114.6,68.41,77,1,9.22,clear sky
31,Rabo De Peixe,PT,37.8,-25.5833,62.28,83,75,18.41,broken clouds
32,Santa Cruz Cabralia,BR,-16.2781,-39.0247,77.16,84,18,4.47,few clouds
33,Naze,JP,28.3667,129.4833,64.72,87,100,11.45,overcast clouds
34,Necochea,AR,-38.5473,-58.7368,58.03,65,1,3.13,clear sky
35,Mahebourg,MU,-20.4081,57.7,76.24,85,44,13.02,moderate rain
36,Rikitea,PF,-23.1203,-134.9692,78.96,71,0,16.82,clear sky
37,Boa Vista,BR,2.8197,-60.6733,82.92,57,90,5.91,overcast clouds
38,Loei,TH,17.4167,101.5,60.26,95,69,2.57,broken clouds
39,Castro,BR,-24.7911,-50.0119,63.91,69,32,6.42,scattered clouds
40,Hilo,US,19.7297,-155.09,79.25,69,40,9.22,scattered clouds
41,Dudinka,RU,69.4058,86.1778,-5.12,82,18,17.22,few clouds
42,Victor Harbor,AU,-35.5667,138.6167,92.46,31,90,7.74,overcast clouds
43,Hualmay,PE,-11.0964,-77.6139,71.71,77,53,7.18,broken clouds
44,Fuxin,CN,42.0156,121.6589,8.2,61,6,6.98,clear sky
45,Yakeshi,CN,49.2833,120.7333,-31.16,100,100,2.33,overcast clouds
46,Nelson Bay,AU,-32.7167,152.15,74.75,70,95,1.99,overcast clouds
47,Bonthe,SL,7.5264,-12.505,76.68,91,20,6.46,few clouds
48,Costa Rica,BR,-23.4167,-54.65,75.96,51,23,4.5,few clouds
49,Tiksi,RU,71.6872,128.8694,-8.48,90,90,14.83,overcast clouds
50,Saint-Philippe,RE,-21.3585,55.7679,78.35,83,23,10.02,few clouds
51,Atuona,PF,-9.8,-139.0333,77.67,77,13,12.55,light rain
52,Ushuaia,AR,-54.8,-68.3,42.37,68,8,2.42,clear sky
53,Asau,RO,46.4333,26.4,28.76,93,52,2.91,broken clouds
54,Tasiilaq,GL,65.6145,-37.6368,8.76,66,100,4.92,overcast clouds
55,Luanda,AO,-8.8368,13.2343,76.57,85,61,6.06,broken clouds
56,Pangnirtung,CA,66.1451,-65.7125,-19.59,99,100,6.13,overcast clouds
57,Celestun,MX,20.8667,-90.4,75.76,82,73,8.25,broken clouds
58,Arman,RU,59.7,150.1667,-3.19,77,96,6.29,overcast clouds
59,Bredasdorp,ZA,-34.5322,20.0403,66.27,83,100,1.45,overcast clouds
60,Marsala,IT,37.7966,12.4352,51.55,70,70,4.0,broken clouds
61,Bethel,US,41.3712,-73.414,50.36,57,0,10.36,clear sky
62,Souillac,MU,-20.5167,57.5167,77.36,85,33,11.16,moderate rain
63,Bluff,NZ,-46.6,168.3333,53.8,77,100,13.89,overcast clouds
64,Saskylakh,RU,71.9167,114.0833,-5.64,76,63,8.72,broken clouds
65,Jalu,LY,29.0331,21.5482,53.73,46,0,4.81,clear sky
66,Stepnogorsk,KZ,52.3544,71.8869,11.52,93,81,10.16,broken clouds
67,Chokurdakh,RU,70.6333,147.9167,-2.6,96,100,12.41,overcast clouds
68,Hasaki,JP,35.7333,140.8333,37.8,60,47,7.02,scattered clouds
69,San Patricio,US,28.017,-97.5169,53.58,54,96,23.31,overcast clouds
70,Port Moresby,PG,-9.4431,147.1797,83.43,60,30,3.56,scattered clouds
71,Arraial Do Cabo,BR,-22.9661,-42.0278,75.22,84,22,6.08,few clouds
72,Lusambo,CD,-4.9667,23.45,69.62,96,100,0.96,overcast clouds
73,Ponta Do Sol,PT,32.6667,-17.1,64.06,71,27,4.61,scattered clouds
74,Jumla,NP,29.2747,82.1838,25.57,70,1,7.07,clear sky
75,Jiaozuo,CN,35.2397,113.2331,35.98,75,51,5.14,broken clouds
76,Port Elizabeth,ZA,-33.918,25.5701,70.09,94,75,23.02,light intensity drizzle
77,Qorveh,IR,35.1664,47.8045,22.82,86,28,1.05,scattered clouds
78,Bata,GQ,1.8639,9.7658,78.96,87,55,4.25,broken clouds
79,Guerrero Negro,MX,27.9769,-114.0611,75.02,29,100,8.08,overcast clouds
80,Dhidhdhoo,MV,6.8833,73.1,81.14,74,88,8.14,overcast clouds
81,Port Alfred,ZA,-33.5906,26.891,74.98,92,46,11.9,scattered clouds
82,Tuktoyaktuk,CA,69.4541,-133.0374,-31.72,97,17,1.14,few clouds
83,Tubinskiy,RU,52.8892,58.2225,10.54,100,75,4.16,broken clouds
84,Bambous Virieux,MU,-20.3428,57.7575,76.21,86,36,13.13,moderate rain
85,Jamame,SO,0.0722,42.7506,73.56,86,59,6.73,broken clouds
86,Katsuura,JP,35.1333,140.3,43.2,60,71,3.94,broken clouds
87,Walvis Bay,NA,-22.9575,14.5053,71.1,77,78,3.4,light rain
88,Vila Franca Do Campo,PT,37.7167,-25.4333,63.19,89,100,10.13,overcast clouds
89,Mount Isa,AU,-20.7333,139.5,87.57,58,40,8.05,scattered clouds
90,Cidreira,BR,-30.1811,-50.2056,74.53,81,4,20.15,clear sky
91,Seybaplaya,MX,19.65,-90.6667,76.46,85,48,10.92,scattered clouds
92,Yellowknife,CA,62.456,-114.3525,-9.58,85,86,8.99,overcast clouds
93,Albany,US,42.6001,-73.9662,34.65,67,53,3.0,broken clouds
94,Barrow,US,71.2906,-156.7887,-30.98,98,0,10.36,clear sky
95,Carnarvon,AU,-24.8667,113.6333,86.07,62,78,6.91,broken clouds
96,Qaanaaq,GL,77.484,-69.3632,-19.25,48,0,8.77,clear sky
97,Chuy,UY,-33.6971,-53.4616,67.75,95,94,8.55,overcast clouds
98,Kodiak,US,57.79,-152.4072,38.71,65,20,8.05,few clouds
99,Adrar,MR,20.5022,-10.0711,62.13,26,72,11.1,broken clouds
100,Araouane,ML,18.9048,-3.5265,62.22,17,3,10.76,clear sky
101,Touros,BR,-5.1989,-35.4608,79.61,79,34,9.1,scattered clouds
102,Luba,GQ,3.4568,8.5547,80.01,82,82,6.38,light rain
103,Tynda,RU,55.1667,124.7167,-23.13,92,31,2.53,scattered clouds
104,Hay River,CA,60.8156,-115.7999,2.23,96,97,9.1,light snow
105,Rocky Mountain House,CA,52.3668,-114.9188,38.21,57,64,4.03,broken clouds
106,Tottori,JP,35.5,134.2333,32.0,68,100,4.12,overcast clouds
107,Saint Anthony,US,45.0205,-93.218,6.26,62,100,4.61,overcast clouds
108,Faanui,PF,-16.4833,-151.75,80.91,74,83,11.7,broken clouds
109,San Jose,US,37.3394,-121.895,83.75,35,20,6.91,few clouds
110,Puerto Ayora,EC,-0.7393,-90.3518,76.55,90,72,1.01,broken clouds
111,Srednekolymsk,RU,67.45,153.6833,-26.39,96,91,7.05,overcast clouds
112,Road Town,VG,18.4167,-64.6167,73.99,94,75,10.36,broken clouds
113,Tibati,CM,6.4667,12.6333,65.53,22,52,2.98,broken clouds
114,Moose Factory,CA,51.2585,-80.6094,-22.04,97,54,4.27,broken clouds
115,Inhambane,MZ,-23.865,35.3833,74.3,76,6,8.16,clear sky
116,Kahului,US,20.8947,-156.47,82.42,61,40,17.27,scattered clouds
117,Mogadishu,SO,2.0371,45.3438,76.44,79,94,19.37,overcast clouds
118,Caronport,CA,50.4501,-105.8179,11.68,84,35,3.51,scattered clouds
119,Hermanus,ZA,-34.4187,19.2345,67.89,80,99,6.38,overcast clouds
120,Dikson,RU,73.5069,80.5464,-4.04,87,100,25.97,overcast clouds
121,Nikolskoye,RU,59.7035,30.7861,35.49,98,100,10.69,light snow
122,Charlestown,AU,-32.95,151.6667,73.11,73,94,4.0,overcast clouds
123,Marsh Harbour,BS,26.5412,-77.0636,75.25,83,13,7.9,few clouds
124,Maceio,BR,-9.6658,-35.7353,80.44,79,0,12.97,clear sky
125,Malim,PH,7.452,123.4312,79.29,81,100,5.66,overcast clouds
126,George,ZA,-33.963,22.4617,67.55,94,100,3.44,overcast clouds
127,Talnakh,RU,69.4865,88.3972,-9.06,77,21,9.42,few clouds
128,Anadyr,RU,64.75,177.4833,-33.03,95,65,8.57,broken clouds
129,San Quintin,MX,30.4833,-115.95,71.15,37,88,7.85,overcast clouds
130,Raduzhnyy,RU,62.0961,77.475,-7.58,96,8,9.19,clear sky
131,Torbay,CA,47.6666,-52.7314,46.76,82,95,7.0,overcast clouds
132,Grand Gaube,MU,-20.0064,57.6608,76.37,87,9,5.01,moderate rain
133,Grindavik,IS,63.8424,-22.4338,21.67,73,0,3.44,clear sky
134,Lebu,CL,-37.6167,-73.65,59.36,86,52,9.08,broken clouds
135,Temiscaming,CA,46.7212,-79.0971,-14.13,96,93,4.0,overcast clouds
136,Yulara,AU,-25.2406,130.9889,84.04,23,1,8.05,clear sky
137,Westport,US,41.1415,-73.3579,52.75,49,0,12.66,clear sky
138,Khatanga,RU,71.9667,102.5,-17.7,86,74,2.89,broken clouds
139,Lugovoy,KZ,42.9472,72.7644,27.61,85,100,4.56,overcast clouds
140,Yatou,CN,37.15,122.3833,37.63,56,100,9.73,overcast clouds
141,Kaitangata,NZ,-46.2817,169.8464,54.93,78,100,10.18,overcast clouds
142,Gombe,NG,10.2897,11.1673,71.55,21,59,8.23,broken clouds
143,Butaritari,KI,3.0707,172.7902,82.76,70,91,13.33,overcast clouds
144,Urucara,BR,-2.5364,-57.76,74.53,97,100,1.66,light rain
145,Cabo San Lucas,MX,22.8909,-109.9124,79.52,49,5,3.53,clear sky
146,Quatre Cocos,MU,-20.2078,57.7625,76.08,86,17,12.66,moderate rain
147,Moa,CU,20.6569,-74.9403,75.97,76,16,10.8,few clouds
148,Acarau,BR,-2.8856,-40.12,78.94,83,92,10.31,overcast clouds
149,Najran,SA,17.4924,44.1277,62.38,36,2,7.27,clear sky
150,Northam,GB,51.0333,-4.2167,50.41,96,100,19.98,overcast clouds
151,Zirgan,RU,53.2222,55.9185,14.18,97,99,5.03,overcast clouds
152,Ballina,AU,-28.8667,153.5667,77.18,88,80,14.79,broken clouds
153,Tazovskiy,RU,67.4667,78.7,-8.01,89,6,15.26,clear sky
154,Singleton,AU,-32.5667,151.1833,74.91,60,90,7.85,overcast clouds
155,Beringovskiy,RU,63.05,179.3167,-19.37,92,9,7.11,clear sky
156,Biloela,AU,-24.4167,150.5,82.0,42,0,13.15,clear sky
157,Ambilobe,MG,-13.2,49.05,72.95,96,92,2.33,light rain
158,Itarema,BR,-2.9248,-39.9167,78.94,82,92,9.73,overcast clouds
159,Marawi,PH,7.9986,124.2928,65.64,75,100,1.28,overcast clouds
160,Luderitz,NA,-26.6481,15.1594,73.35,66,4,8.63,clear sky
161,Vanderhoof,CA,54.0166,-124.0198,37.96,96,100,1.28,overcast clouds
162,Muravlenko,RU,63.7898,74.523,-12.15,96,6,11.81,clear sky
163,Macenta,GN,8.5435,-9.471,68.68,20,18,2.53,few clouds
164,Ucluelet,CA,48.9329,-125.5528,55.09,80,8,2.46,clear sky
165,Shingu,JP,33.7333,135.9833,44.91,57,94,4.12,light rain
166,Biak,ID,-0.9131,122.8766,75.31,89,100,4.32,overcast clouds
167,Tuatapere,NZ,-46.1333,167.6833,53.82,70,100,8.43,overcast clouds
168,Chifeng,CN,42.2683,118.9636,8.69,83,87,4.32,overcast clouds
169,Dingle,PH,10.9995,122.6711,78.78,84,40,8.88,scattered clouds
170,Airai,TL,-8.9266,125.4092,66.47,80,76,3.0,broken clouds
171,Kailua,US,21.4022,-157.7394,81.81,65,0,10.36,clear sky
172,Nanortalik,GL,60.1432,-45.2371,30.15,95,100,11.61,light snow
173,Rio Gallegos,AR,-51.6226,-69.2181,64.45,32,75,12.66,broken clouds
174,Mujiayingzi,CN,42.1167,118.7833,8.42,81,94,3.71,overcast clouds
175,Hun,LY,29.1268,15.9477,51.44,46,0,6.29,clear sky
176,Dois Vizinhos,BR,-25.7336,-53.0572,69.82,78,61,1.36,light rain
177,Kuressaare,EE,58.2481,22.5039,36.95,87,75,15.99,broken clouds
178,Kruisfontein,ZA,-34.0033,24.7314,70.56,94,99,8.97,light rain
179,Presidencia Roque Saenz Pena,AR,-26.7852,-60.4388,62.35,78,100,6.58,overcast clouds
180,Iqaluit,CA,63.7506,-68.5145,-30.78,97,100,3.8,overcast clouds
181,Laguna,US,38.421,-121.4238,79.25,43,0,5.75,clear sky
182,Fort Nelson,CA,58.8053,-122.7002,23.99,94,100,3.53,overcast clouds
183,Tosno,RU,59.54,30.8775,36.63,98,100,9.69,light snow
184,Upernavik,GL,72.7868,-56.1549,9.9,88,100,27.07,light snow
185,Zholymbet,KZ,51.7433,71.7122,17.28,94,96,12.41,overcast clouds
186,Siva,EG,29.2041,25.5195,54.18,59,0,3.67,clear sky
187,Sioux Lookout,CA,50.1001,-91.917,-10.1,94,100,2.46,overcast clouds
188,Carlyle,US,38.6103,-89.3726,22.3,75,49,3.0,scattered clouds
189,Labuhan,ID,-6.8844,112.2051,78.48,84,100,5.99,light rain
190,La Solana,ES,38.9442,-3.2381,47.44,69,56,5.77,broken clouds
191,Hailar,CN,49.2,119.7,-28.28,100,100,3.74,overcast clouds
192,Port Blair,IN,11.6667,92.75,74.93,74,28,12.19,scattered clouds
193,Weligama,LK,5.9667,80.4167,74.8,88,93,1.36,overcast clouds
194,Nsanje,MW,-16.92,35.262,71.26,95,82,1.86,broken clouds
195,Natitingou,BJ,10.3042,1.3796,75.81,14,40,5.97,scattered clouds
196,Zelenoborsk,RU,61.4669,64.0333,-4.83,100,100,4.72,overcast clouds
197,Jacareacanga,BR,-6.2222,-57.7528,73.96,97,100,1.92,light rain
198,Muros,ES,42.7762,-9.0603,50.85,94,33,10.65,scattered clouds
199,Yermakovskoye,RU,53.2831,92.4003,-23.12,100,52,0.54,broken clouds
200,Los Llanos De Aridane,ES,28.6585,-17.9182,62.35,77,75,12.66,broken clouds
201,Khandbari,NP,27.3747,87.2039,47.48,59,1,3.44,clear sky
202,Klaksvik,FO,62.2266,-6.589,40.12,96,94,23.06,overcast clouds
203,Srednyaya Akhtuba,RU,48.7089,44.8667,28.06,92,99,11.7,overcast clouds
204,Salinopolis,BR,-0.6136,-47.3561,78.22,87,45,8.84,scattered clouds
205,Ust-Nera,RU,64.5667,143.2,-32.67,98,63,2.75,broken clouds
206,Nikel,RU,69.4128,30.222,-0.22,97,13,7.0,few clouds
207,Gat,IL,31.61,34.7642,54.39,100,0,0.94,clear sky
208,Ostrovnoy,RU,68.0531,39.5131,4.28,96,61,3.58,broken clouds
209,Port Macquarie,AU,-31.4333,152.9167,69.89,64,100,6.85,overcast clouds
210,Thinadhoo,MV,0.5333,72.9333,81.23,72,100,10.07,overcast clouds
211,Luganville,VU,-15.5333,167.1667,79.09,89,100,7.02,overcast clouds
212,Meulaboh,ID,4.1363,96.1285,76.51,86,99,4.56,overcast clouds
213,Nairobi,KE,-1.2833,36.8167,60.33,76,84,4.54,broken clouds
214,Nouadhibou,MR,20.931,-17.0347,66.43,68,64,20.33,broken clouds
215,Georgetown,MY,5.4112,100.3354,78.89,80,20,5.75,few clouds
216,Paraiso,CR,9.8383,-83.8656,66.96,96,56,4.05,broken clouds
217,Lima,PE,-12.0432,-77.0282,74.89,66,75,6.91,broken clouds
218,Lasa,IT,46.6166,10.7002,27.01,41,25,1.41,scattered clouds
219,Acapulco,MX,16.8634,-99.8901,82.22,61,75,5.75,broken clouds
220,Rawson,AR,-43.3002,-65.1023,74.75,28,94,12.97,overcast clouds
221,Conde,BR,-7.2597,-34.9075,80.06,83,40,4.61,scattered clouds
222,Savannah Bight,HN,16.45,-85.85,79.0,80,0,22.08,clear sky
223,Magistralnyy,RU,56.1725,107.4458,-33.75,100,85,2.17,overcast clouds
224,Buckingham,GB,51.9997,-0.9878,46.35,91,100,5.01,overcast clouds
225,Vestmannaeyjar,IS,63.4427,-20.2734,31.86,77,32,8.77,scattered clouds
226,Baruun-Urt,MN,46.6806,113.2792,-14.84,100,83,5.35,broken clouds
227,Mehnagar,IN,25.8833,83.1167,47.95,67,0,4.29,clear sky
228,Ahipara,NZ,-35.1667,173.1667,70.92,68,70,19.55,broken clouds
229,Whitehorse,CA,60.7161,-135.0538,38.1,60,33,14.67,scattered clouds
230,Surt,LY,31.2089,16.5887,56.44,62,0,7.87,clear sky
231,Milevsko,CZ,49.4509,14.36,32.56,99,23,6.76,few clouds
232,Margherita,IN,27.2833,95.6833,49.48,90,0,2.37,clear sky
233,Lyuban,BY,52.7985,28.0048,27.48,78,40,9.42,scattered clouds
234,Charters Towers,AU,-20.1,146.2667,81.23,53,1,13.06,clear sky
235,Lavrentiya,RU,65.5833,-171.0,-10.57,91,11,7.18,few clouds
236,Tabou,CI,4.423,-7.3528,78.33,87,28,5.91,scattered clouds
237,Berlevag,NO,70.8578,29.0864,24.1,77,41,20.2,scattered clouds
238,Baykit,RU,61.67,96.37,-16.33,100,38,2.57,scattered clouds
239,Sistranda,NO,63.7256,8.834,39.9,69,100,12.91,light rain
240,Pisco,PE,-13.7,-76.2167,70.02,78,0,17.27,clear sky
241,Fairbanks,US,64.8378,-147.7164,6.82,71,0,0.0,clear sky
242,Bangkalan,ID,-7.0455,112.7351,75.15,85,100,2.21,moderate rain
243,Sao Joao Da Barra,BR,-21.6403,-41.0511,74.71,87,97,2.66,overcast clouds
244,Pathein,MM,16.7833,94.7333,62.89,71,76,6.64,broken clouds
245,Churapcha,RU,62.0025,132.4325,-21.69,99,100,2.19,overcast clouds
246,Tura,IN,25.5198,90.2201,52.84,80,0,4.29,clear sky
247,Vao,NC,-22.6667,167.4833,80.47,78,97,3.44,overcast clouds
248,Esperance,AU,-33.8667,121.9,64.44,59,94,8.34,overcast clouds
249,Olafsvik,IS,64.8945,-23.7142,26.28,70,22,17.45,few clouds
250,Klyuchi,RU,52.2667,79.1667,15.66,94,100,11.23,overcast clouds
251,Winston-Salem,US,36.0999,-80.2442,60.71,54,48,9.46,scattered clouds
252,Thunder Bay,CA,48.4001,-89.3168,-4.45,67,100,2.01,overcast clouds
253,Juneau,US,58.3019,-134.4197,42.85,94,100,0.0,overcast clouds
254,Pasaje,EC,-3.3333,-79.8167,80.67,85,77,0.87,light rain
255,Maniitsoq,GL,65.4167,-52.9,11.35,91,100,5.5,light snow
256,Negotin,RS,44.2264,22.5308,40.95,81,100,13.22,overcast clouds
257,Alice Springs,AU,-23.7,133.8833,80.15,28,0,8.05,clear sky
258,Sobolevo,RU,54.4299,31.8996,25.52,87,63,12.97,broken clouds
259,Corlu,TR,41.1592,27.8,42.78,70,75,26.46,broken clouds
260,Victoria,HK,22.2855,114.1577,64.94,92,100,5.99,overcast clouds
261,Makueni,KE,-1.8041,37.6203,62.76,74,59,1.25,broken clouds
262,Kangaatsiaq,GL,68.3065,-53.4641,-1.19,85,100,10.89,overcast clouds
263,Mapiripan,CO,2.8892,-72.1256,82.08,51,68,5.53,broken clouds
264,Vardo,NO,70.3705,31.1107,26.82,65,14,17.09,few clouds
265,Omboue,GA,-1.5746,9.2618,77.99,89,100,5.14,light rain
266,Bollnas,SE,61.3482,16.3946,36.39,96,100,11.86,overcast clouds
267,Marienburg,PL,54.0359,19.0266,31.87,66,54,12.64,broken clouds
268,Constantine,DZ,36.365,6.6147,40.41,93,40,5.75,scattered clouds
269,Kirakira,SB,-10.4544,161.9205,84.61,69,54,3.65,broken clouds
270,Clyde River,CA,70.4692,-68.5914,-16.37,76,100,31.07,snow
271,Port-Gentil,GA,-0.7193,8.7815,80.49,82,86,7.9,overcast clouds
272,Cloquet,US,46.7216,-92.4594,1.38,56,100,0.0,overcast clouds
273,Avarua,CK,-21.2078,-159.775,82.45,65,100,4.61,overcast clouds
274,Ribeira Grande,PT,38.5167,-28.7,61.56,89,100,15.57,overcast clouds
275,Sept-Iles,CA,50.2001,-66.3821,28.92,85,100,17.27,overcast clouds
276,Irbeyskoye,RU,55.6428,95.4522,-21.26,99,50,2.51,scattered clouds
277,Rocha,UY,-34.4833,-54.3333,65.34,92,100,14.03,overcast clouds
278,Kaduqli,SD,11.0167,29.7167,72.5,16,5,12.57,clear sky
279,Saldanha,ZA,-33.0117,17.9442,65.28,91,79,15.52,broken clouds
280,Eston,CA,51.1501,-108.7514,10.92,80,55,5.55,broken clouds
281,Poso,ID,-1.3959,120.7524,77.68,86,100,1.16,overcast clouds
282,Lengshuitan,CN,26.4111,111.5956,40.66,93,100,2.48,light rain
283,Bereda,ES,43.2686,-7.5406,45.0,99,33,2.98,scattered clouds
284,Hede,CN,33.7681,120.2517,42.28,77,86,4.63,light rain
285,Marion,US,39.7684,-86.1555,23.79,74,100,10.36,overcast clouds
286,Moindou,NC,-21.6924,165.677,85.95,72,99,7.99,overcast clouds
287,Bandarbeyla,SO,9.4942,50.8122,74.73,71,99,11.99,overcast clouds
288,Wenling,CN,28.3669,121.36,48.9,88,100,5.95,light rain
289,Saint-Ambroise,CA,48.5501,-71.3324,0.57,88,100,11.77,overcast clouds
290,Mlonggo,ID,-6.5333,110.7,75.09,81,100,3.18,overcast clouds
291,Rapid City,US,44.0805,-103.231,40.28,40,20,24.16,few clouds
292,Bambanglipuro,ID,-7.95,110.2833,64.6,85,100,4.56,overcast clouds
293,Margate,GB,51.3813,1.3862,44.96,73,91,8.01,overcast clouds
294,Magway,MM,20.15,94.9167,61.72,51,52,5.77,broken clouds
295,Bom Jardim,BR,-7.7958,-35.5872,74.98,85,84,6.78,broken clouds
296,Sisimiut,GL,66.9395,-53.6735,10.96,93,100,18.88,light snow
297,Nacogdoches,US,31.6002,-94.6335,41.58,89,75,12.66,broken clouds
298,Aasiaat,GL,68.7098,-52.8699,2.37,83,100,9.6,overcast clouds
299,Provideniya,RU,64.3833,-173.3,-5.03,86,12,4.03,few clouds
300,Tisul,RU,55.7611,88.3122,-9.72,93,5,7.36,clear sky
301,Isangel,VU,-19.55,169.2667,85.32,69,100,1.16,overcast clouds
302,Ketchikan,US,55.3422,-131.6461,42.78,87,100,6.91,overcast clouds
303,Hirakud,IN,21.5167,83.8667,55.31,41,6,3.96,clear sky
304,Sale,MA,34.0389,-6.8166,55.63,100,34,8.05,scattered clouds
305,Nakasongola,UG,1.3089,32.4564,68.31,75,89,4.83,overcast clouds
306,Zonguldak,TR,41.25,31.8333,34.65,94,99,2.55,overcast clouds
307,Alanya,TR,36.5438,31.9998,44.73,49,55,4.81,broken clouds
308,Sukagawa,JP,37.2833,140.3833,41.09,81,99,4.61,overcast clouds
309,Khasan,RU,42.4308,130.6434,19.9,49,91,9.42,overcast clouds
310,Kaba,HU,47.35,21.2833,28.56,67,0,6.13,clear sky
311,Devils Lake,US,48.1128,-98.8651,-0.42,74,0,12.66,clear sky
312,Bengkulu,ID,-3.8004,102.2655,76.12,82,96,3.98,overcast clouds
313,Buritizeiro,BR,-17.3511,-44.9622,67.15,97,83,1.5,broken clouds
314,Surgut,RU,61.25,73.4167,-10.91,76,0,11.01,clear sky
315,Caramay,PH,10.1815,119.236,79.29,86,100,6.87,overcast clouds
316,Komsomolskiy,UZ,40.4272,71.7189,38.62,93,100,2.3,fog
317,Sur,OM,22.5667,59.5289,68.22,59,0,6.58,clear sky
318,Waingapu,ID,-9.6567,120.2641,80.73,75,100,1.43,overcast clouds
319,Phon Thong,TH,16.3016,103.9768,72.41,76,28,7.27,scattered clouds
320,Abu Kamal,SY,34.4506,40.9171,49.82,53,0,9.15,clear sky
321,Angoche,MZ,-16.2325,39.9086,75.27,94,100,6.13,light rain
322,Dubai,AE,25.2582,55.3047,71.22,64,0,5.75,clear sky
323,Tutoia,BR,-2.7619,-42.2744,84.18,84,68,11.14,broken clouds
324,Paramonga,PE,-10.6667,-77.8333,71.91,78,38,7.05,scattered clouds
325,Ust-Tsilma,RU,65.441,52.1498,11.43,96,98,4.99,overcast clouds
326,Severo-Kurilsk,RU,50.6789,156.125,24.3,74,56,6.15,broken clouds
327,Dunedin,NZ,-45.8742,170.5036,52.81,88,100,8.01,overcast clouds
328,Christchurch,NZ,-43.5333,172.6333,53.94,88,100,11.5,overcast clouds
329,San Blas,MX,21.5167,-105.2667,77.54,48,10,7.11,clear sky
330,Semnan,IR,35.5729,53.3971,41.05,57,1,1.25,clear sky
331,Narsaq,GL,60.9167,-46.05,30.42,96,100,9.48,light snow
332,Kropotkin,RU,45.4375,40.5756,37.22,88,100,15.26,overcast clouds
333,Leshukonskoye,RU,64.8989,45.7622,5.22,99,95,4.74,overcast clouds
334,Shenjiamen,CN,29.9576,122.298,46.81,92,100,12.46,overcast clouds
335,Hofn,IS,64.2539,-15.2082,23.27,68,97,17.52,overcast clouds
336,Kenai,US,60.5544,-151.2583,37.49,91,100,0.0,overcast clouds
337,San Juan,AR,-31.5375,-68.5364,70.72,19,9,4.76,clear sky
338,Norman Wells,CA,65.282,-126.8329,-6.97,94,99,3.67,overcast clouds
339,Vrangel,RU,42.7297,133.0839,16.02,55,5,9.35,clear sky
340,Mahina,PF,-17.5065,-149.489,85.77,58,75,6.91,broken clouds
341,Norsup,VU,-16.0667,167.3833,82.83,77,100,8.79,overcast clouds
342,Fukuma,JP,33.7667,130.4667,46.29,91,100,7.87,light rain
343,Namibe,AO,-15.1961,12.1522,74.66,80,84,2.62,broken clouds
344,Kidal,ML,18.4411,1.4078,67.26,13,0,4.61,clear sky
345,Severnoye,RU,56.3491,78.3619,-3.15,93,13,10.16,few clouds
346,Zabid,YE,14.1951,43.3152,73.71,81,95,4.76,overcast clouds
347,Lompoc,US,34.6391,-120.4579,84.34,14,0,10.36,clear sky
348,Vanimo,PG,-2.6741,141.3028,81.43,80,70,2.84,broken clouds
349,Miles City,US,46.4083,-105.8406,38.52,48,20,13.8,few clouds
350,Ocotepec,MX,17.2167,-93.15,59.34,97,57,3.18,broken clouds
351,Codrington,AU,-38.2667,141.9667,84.76,28,86,17.69,overcast clouds
352,Aswan,EG,24.0934,32.907,55.8,50,0,9.31,clear sky
353,Tursunzoda,TJ,38.5144,68.2333,43.68,79,99,4.34,overcast clouds
354,Caravelas,BR,-17.7125,-39.2481,76.87,82,93,5.3,overcast clouds
355,Ende,ID,-8.8432,121.6623,79.86,82,99,1.43,overcast clouds
356,Kocerin,BA,43.3897,17.485,33.71,75,85,4.85,overcast clouds
357,Saint-Joseph,RE,-21.3667,55.6167,77.36,80,13,9.57,few clouds
358,Noyabrsk,RU,63.1994,75.4507,-10.71,96,11,13.4,few clouds
359,Lovington,US,32.944,-103.3485,44.02,44,31,1.01,scattered clouds
360,Ulaangom,MN,49.9811,92.0667,-29.11,93,100,2.8,overcast clouds
361,La Asuncion,VE,11.0333,-63.8628,76.15,83,15,15.79,few clouds
362,Vila Nova De Milfontes,PT,37.7238,-8.7828,54.25,76,85,3.94,overcast clouds
363,Bang Saphan,TH,11.2126,99.5117,73.38,89,27,3.0,scattered clouds
364,Hassleholm,SE,56.1591,13.7664,35.44,76,100,12.46,overcast clouds
365,Bondo,CD,3.8146,23.6866,70.9,42,81,0.69,broken clouds
366,Soe,ID,-9.8607,124.284,71.85,83,82,2.59,broken clouds
367,Tadine,NC,-21.55,167.8833,83.86,72,95,5.64,overcast clouds
368,Sumbawanga,TZ,-7.9667,31.6167,58.01,90,100,0.89,overcast clouds
369,Redmond,US,47.674,-122.1215,58.46,56,4,5.99,clear sky
370,Ternate,ID,0.8,127.4,81.5,75,100,3.51,overcast clouds
371,Safita,SY,34.8205,36.1153,44.51,75,0,1.88,clear sky
372,Igarka,RU,67.4667,86.5833,-12.23,82,3,10.65,clear sky
373,Nianzishan,CN,47.5167,122.8833,-3.06,83,35,3.96,scattered clouds
374,Ulladulla,AU,-35.35,150.4667,78.87,51,20,4.59,few clouds
375,Troitsk,RU,54.0979,61.5773,-1.68,100,89,3.96,overcast clouds
376,Aklavik,CA,68.2191,-135.0107,-26.81,95,98,7.14,overcast clouds
377,Ascension,US,30.2169,-90.9001,66.2,45,100,10.36,overcast clouds
378,Port-Cartier,CA,50.0334,-66.8654,28.62,90,100,17.34,snow
379,Mount Gambier,AU,-37.8333,140.7667,81.05,25,87,8.3,overcast clouds
380,Tucupita,VE,9.0622,-62.051,73.98,77,92,6.13,overcast clouds
381,La Rioja,ES,42.25,-2.5,40.05,85,91,6.08,overcast clouds
382,Beloha,MG,-25.1667,45.05,73.42,85,6,14.94,clear sky
383,Pouembout,NC,-21.1333,164.9,87.04,65,81,3.85,broken clouds
384,Emba,KZ,48.8264,58.1442,19.89,97,100,5.82,overcast clouds
385,Tomohon,ID,1.3346,124.8392,67.14,86,99,1.16,overcast clouds
386,Lucea,JM,18.451,-78.1736,80.46,77,10,8.43,clear sky
387,Kargasok,RU,59.0556,80.8572,-7.62,98,63,9.84,broken clouds
388,Roald,NO,62.5833,6.1333,41.14,87,100,9.22,overcast clouds
389,Gravelbourg,CA,49.8834,-106.5512,16.2,78,9,2.26,clear sky
390,Megion,RU,61.0296,76.1136,-6.99,97,14,11.39,few clouds
391,Yaan,NG,7.3833,8.5667,81.18,12,54,2.46,broken clouds
392,Sibu,MY,2.3,111.8167,72.45,99,100,1.9,overcast clouds
393,Jian,CN,27.1172,114.9793,43.9,95,100,6.6,overcast clouds
394,Hudiksvall,SE,61.729,17.1036,35.01,97,100,10.71,overcast clouds
395,Altamira,BR,-3.2033,-52.2064,73.11,96,84,1.95,broken clouds
396,Livingston,GB,55.9029,-3.5226,44.85,82,0,19.57,clear sky
397,Port Augusta,AU,-32.5,137.7667,89.71,13,62,4.74,broken clouds
398,Sorland,NO,67.667,12.6934,33.04,86,100,12.46,snow
399,El Reno,US,35.5323,-97.955,39.38,33,0,0.0,clear sky
400,Axim,GH,4.8699,-2.2405,78.44,86,58,4.27,light rain
401,Merauke,ID,-8.4667,140.3333,82.49,67,18,11.77,few clouds
402,Kagalnitskaya,RU,46.8806,40.1466,34.66,83,87,12.15,overcast clouds
403,Kuytun,RU,54.3419,101.5036,-33.03,100,75,2.33,broken clouds
404,Bulgan,MN,48.8125,103.5347,-17.12,100,93,1.5,overcast clouds
405,Snasa,NO,64.2457,12.3778,26.46,94,100,4.88,light snow
406,Potoru,SL,7.5072,-11.4786,72.84,98,15,1.41,few clouds
407,Lagos,NG,6.5833,3.75,77.52,91,36,3.24,scattered clouds
408,Vinukonda,IN,16.05,79.75,66.69,93,68,1.86,broken clouds
409,Dongsheng,CN,39.8161,109.9776,23.49,80,97,13.31,overcast clouds
410,Erzin,TR,36.9559,36.2,41.72,70,68,1.97,broken clouds
411,Te Anau,NZ,-45.4167,167.7167,48.92,85,96,4.21,overcast clouds
412,Pevek,RU,69.7008,170.3133,-20.11,97,100,8.75,overcast clouds
413,Fremont,US,37.5483,-121.9886,83.25,48,0,6.91,clear sky
414,Kawambwa,ZM,-9.7915,29.0791,62.47,98,100,2.39,light rain
415,Goderich,CA,43.7501,-81.7165,14.92,93,100,7.9,light snow
416,Bathsheba,BB,13.2167,-59.5167,77.61,69,75,16.11,broken clouds
417,Bilma,NE,18.6853,12.9164,62.08,17,0,7.56,clear sky
418,Yagodnoye,RU,62.55,149.6667,-27.29,97,92,3.51,overcast clouds
419,Egvekinot,RU,66.3167,-179.1667,-16.28,88,16,6.13,few clouds
420,Hambantota,LK,6.1241,81.1185,75.97,84,90,5.86,moderate rain
421,Miandrivazo,MG,-19.5167,45.4667,79.0,84,59,1.77,broken clouds
422,Zemio,CF,5.0314,25.1361,73.4,35,95,2.21,overcast clouds
423,Ust-Ilimsk,RU,58.0006,102.6619,-24.74,100,66,2.06,broken clouds
424,Seoul,KR,37.5683,126.9778,36.84,46,100,3.04,overcast clouds
425,Tiznit,MA,29.5833,-9.5,57.02,49,22,3.51,few clouds
426,Tual,ID,-5.6667,132.75,82.89,70,13,4.83,few clouds
427,Avera,US,33.194,-82.5271,62.47,57,85,7.36,overcast clouds
428,Sutesti,RO,45.2167,27.4333,33.44,68,39,9.19,scattered clouds
429,Waverley,ZA,-25.7023,28.2591,69.4,41,83,4.18,broken clouds
430,Zhangjiakou,CN,40.81,114.8794,19.76,93,100,10.2,light snow
431,Pawai,IN,24.2667,80.1667,53.29,40,0,2.26,clear sky
432,Le Vauclin,MQ,14.5452,-60.8388,78.85,69,75,13.8,broken clouds
433,Orcopampa,PE,-15.2661,-72.3417,41.76,91,100,2.77,moderate rain
434,Lalsk,RU,60.7415,47.5862,16.0,95,100,5.88,light snow
435,Portland,US,45.5234,-122.6762,64.81,31,0,12.66,clear sky
436,Sao Filipe,CV,14.8961,-24.4956,77.47,48,97,19.55,overcast clouds
437,Gualeguaychu,AR,-33.0094,-58.5172,64.85,77,44,6.11,scattered clouds
438,Akdepe,TM,42.0551,59.3788,33.8,79,19,5.21,few clouds
439,Chapulhuacan,MX,21.1667,-98.9,63.95,80,87,5.5,overcast clouds
440,Yumen,CN,40.2833,97.2,22.06,56,100,7.67,overcast clouds
441,Karwar,IN,14.8,74.1333,72.3,55,6,5.35,clear sky
442,Cockburn Town,TC,21.4612,-71.1419,77.47,78,0,19.6,clear sky
443,Birao,CF,10.2849,22.7882,68.16,11,74,6.82,broken clouds
444,Yerbogachen,RU,61.2767,108.0108,-27.31,100,99,1.99,overcast clouds
445,Vydrino,RU,51.485,104.8461,-11.94,92,96,3.91,overcast clouds
446,Balikpapan,ID,-1.2675,116.8289,76.19,94,20,4.61,few clouds
447,Vazante,BR,-17.9869,-46.9078,66.97,98,70,3.29,broken clouds
448,Kirensk,RU,57.7853,108.1119,-30.01,100,100,0.6,overcast clouds
449,Buala,SB,-8.145,159.5921,84.42,68,97,2.28,overcast clouds
450,Ust-Barguzin,RU,53.45,108.9833,-26.99,96,27,4.9,scattered clouds
451,Watsa,CD,3.0372,29.5355,68.05,45,45,2.21,scattered clouds
452,Coquimbo,CL,-29.9533,-71.3436,66.04,74,1,2.75,clear sky
453,Tucuma,BR,-0.1833,-50.05,76.19,93,82,5.5,broken clouds
454,Cintalapa,MX,16.6951,-93.7272,73.63,77,5,7.7,clear sky
455,Buraydah,SA,26.326,43.975,48.33,44,0,8.84,clear sky
456,Marzuq,YE,14.4,46.4667,61.14,60,27,0.16,scattered clouds
457,Shillong,IN,25.5689,91.8831,34.83,76,0,1.19,clear sky
458,Acajutla,SV,13.5928,-89.8275,81.81,72,3,5.97,clear sky
459,Nome,US,64.5011,-165.4064,3.27,47,0,6.91,clear sky
460,Rudnaya Pristan,RU,44.3614,135.8116,16.11,60,40,14.47,scattered clouds
461,Haines Junction,CA,60.7522,-137.5108,32.07,90,24,6.13,few clouds
462,Suntar,RU,62.1444,117.6319,-31.72,100,98,2.84,overcast clouds
463,Tucson,US,32.2217,-110.9265,79.18,10,0,10.36,clear sky
464,Mayumba,GA,-3.432,10.6554,77.72,89,100,3.49,light rain
465,Maarianhamina,AX,60.0973,19.9348,35.46,80,100,13.8,overcast clouds
466,San Isidro,PE,-12.1167,-77.05,76.01,69,75,6.91,broken clouds
467,Bushenyi,UG,-0.5853,30.2114,60.26,79,100,1.5,overcast clouds
468,Griffith,US,41.5284,-87.4237,18.09,67,75,9.22,broken clouds
469,Cugir,RO,45.8333,23.3667,24.53,80,4,3.22,clear sky
470,Phonhong,LA,18.5007,102.4166,67.82,94,96,1.39,overcast clouds
471,Atbasar,KZ,51.8,68.3333,23.16,96,100,12.15,snow
472,Micheweni,TZ,-4.9667,39.8333,78.42,77,69,6.31,broken clouds
473,Shizunai,JP,42.3339,142.3669,29.73,72,87,18.72,overcast clouds
474,Mantua,IT,45.1667,10.7833,39.18,70,7,3.0,clear sky
475,Yarmouth,US,41.7057,-70.2286,51.85,75,0,6.91,clear sky
476,Ngunguru,NZ,-35.6167,174.5,75.16,68,85,20.62,overcast clouds
477,Saint-Francois,FR,46.4154,3.9054,31.41,92,60,2.3,broken clouds
478,Novyy Buyan,RU,53.6861,50.0469,24.96,96,100,9.28,light snow
479,Konstantinovka,RU,49.6167,127.9833,1.56,95,100,8.3,overcast clouds
480,Gushikawa,JP,26.3544,127.8686,70.83,86,75,8.05,broken clouds
481,Salalah,OM,17.0151,54.0924,73.49,64,20,5.75,few clouds
482,Jakar,BT,27.5492,90.7525,27.07,46,0,5.66,clear sky
483,Kushima,JP,31.4583,131.2333,55.44,94,100,5.41,overcast clouds
484,El Carmen,CO,8.5106,-73.4478,70.66,71,66,5.17,broken clouds
485,San Carlos De Bariloche,AR,-41.1456,-71.3082,67.24,29,99,2.66,overcast clouds
486,Deputatskiy,RU,69.3,139.9,-10.7,93,100,5.84,overcast clouds
487,Kalulushi,ZM,-12.8378,28.0919,58.53,96,80,3.94,broken clouds
488,Sao Jose Da Coroa Grande,BR,-8.8978,-35.1478,79.68,82,16,11.32,few clouds
489,Berekum,GH,7.4534,-2.584,75.7,72,82,4.72,broken clouds
490,Moroni,KM,-11.7022,43.2551,77.92,84,76,4.94,light rain
491,Porbandar,IN,21.6422,69.6093,66.76,47,3,8.34,clear sky
492,Oga,IT,46.4631,10.347,20.7,49,56,2.68,broken clouds
493,Mao,ES,39.8885,4.2658,48.76,87,0,4.61,clear sky
494,Thai Binh,VN,20.45,106.3333,62.6,92,100,8.48,overcast clouds
495,Kharp,RU,66.8014,65.8081,-9.92,99,100,3.89,light snow
496,Galdar,ES,28.147,-15.6502,63.1,74,9,10.58,clear sky
497,Ozinki,RU,51.1786,49.6769,21.33,94,100,7.14,overcast clouds
498,Tommot,RU,58.9564,126.2925,-33.18,100,79,1.03,broken clouds
499,Alihe,CN,50.5667,123.7167,-7.02,92,90,2.71,overcast clouds
500,Kamenka,RU,51.3223,42.7678,26.74,96,91,9.33,overcast clouds
501,Sola,VU,-13.8833,167.55,78.55,82,100,13.67,overcast clouds
502,Svay Rieng,KH,11.0879,105.7993,75.36,83,70,1.74,broken clouds
503,Sinnar,SD,13.5691,33.5672,74.93,22,0,13.98,clear sky
504,Poum,NC,-20.2333,164.0167,81.52,72,100,3.89,overcast clouds
505,Henties Bay,NA,-22.116,14.2845,70.86,79,96,5.17,light rain
506,Privolnyy,RU,44.0998,46.6587,39.72,75,25,8.79,scattered clouds
507,Ayia Anna,CY,34.9399,33.4843,53.6,93,0,6.91,clear sky
508,Lorengau,PG,-2.0226,147.2712,82.31,77,99,2.28,overcast clouds
509,Coolum Beach,AU,-26.5333,153.1,78.12,74,61,13.76,broken clouds
510,Atar,MR,20.5169,-13.0499,66.79,25,48,8.41,scattered clouds
511,Graham,US,47.0529,-122.2943,57.02,57,0,9.22,clear sky
512,Arecibo,PR,18.4724,-66.7157,76.1,94,45,15.19,scattered clouds
513,Daru,PG,-9.0763,143.2092,83.55,68,7,9.26,clear sky
514,Juan Lacaze,UY,-34.4342,-57.4381,63.12,62,63,17.81,broken clouds
515,Umm Kaddadah,SD,13.6017,26.6876,58.55,21,2,11.52,clear sky
516,Salekhard,RU,66.53,66.6019,-10.26,99,100,5.21,overcast clouds
517,Katima Mulilo,NA,-17.5,24.2667,64.76,96,30,3.47,scattered clouds
518,Kununurra,AU,-15.7667,128.7333,84.18,84,43,2.3,scattered clouds
519,Bafata,GW,12.1667,-14.75,74.88,13,0,4.5,clear sky
520,Severo-Yeniseyskiy,RU,60.3725,93.0408,-19.26,99,19,3.62,few clouds
521,Novopavlovka,RU,51.2172,109.2091,-28.12,100,73,1.43,broken clouds
522,Japura,ID,-0.3167,102.35,73.54,96,99,1.1,overcast clouds
523,Evensk,RU,61.95,159.2333,-5.85,75,20,6.46,few clouds
524,Esna,EG,25.2934,32.554,55.98,46,0,6.22,clear sky
525,Kavieng,PG,-2.5744,150.7967,82.38,73,100,3.2,light rain
526,Andros Town,BS,24.7,-77.7667,75.16,79,10,9.82,clear sky
527,Novyy Urengoy,RU,66.0833,76.6333,-10.71,95,32,14.34,scattered clouds
528,Otradnoye,RU,59.7775,30.8181,35.65,97,100,10.96,light snow
529,Santa Maria,BR,-29.6842,-53.8069,70.11,89,48,4.81,scattered clouds
530,Hurricane,US,37.1753,-113.2899,68.34,17,4,1.86,clear sky
531,Kazanskaya,RU,45.4106,40.4361,36.72,87,100,14.97,overcast clouds
532,Manaure,CO,11.7751,-72.4445,79.68,70,62,22.86,broken clouds
533,Fredericksburg,US,38.3032,-77.4605,57.09,58,75,3.44,broken clouds
534,Gedo,ET,9.0167,37.45,58.71,48,87,1.34,overcast clouds
535,Inta,RU,66.0317,60.1659,4.32,85,100,10.69,overcast clouds
536,Tsumeb,NA,-19.2333,17.7167,66.04,83,100,5.23,overcast clouds
537,Bubaque,GW,11.2833,-15.8333,80.02,59,0,7.87,clear sky
538,Bani,DO,18.2833,-70.3333,77.86,75,16,9.84,few clouds
539,Ostersund,SE,63.1792,14.6357,32.61,86,75,11.5,broken clouds
540,Longyearbyen,SJ,78.2186,15.6401,8.44,72,0,10.36,clear sky
541,Panalingaan,PH,8.7842,117.4231,79.48,81,100,2.57,moderate rain
542,Khrebtovaya,RU,56.7032,104.2494,-29.54,100,31,2.57,scattered clouds
543,Quelimane,MZ,-17.8786,36.8883,74.46,96,94,3.2,light rain
544,Bydgoszcz,PL,53.1235,18.0076,30.65,74,0,5.75,clear sky
545,Rosetta,EG,31.4044,30.4164,55.58,78,0,10.2,clear sky
546,Boende,CD,-0.2167,20.8667,71.87,87,98,2.95,light rain
547,Fort Oglethorpe,US,34.949,-85.2569,51.26,55,75,12.66,broken clouds
548,Uglich,RU,57.5275,38.3317,28.94,92,99,13.96,light snow
549,Santa Engracia,ES,41.9406,-1.3245,49.14,75,81,6.22,broken clouds
550,Fez,MA,34.0372,-4.9998,41.25,56,0,2.3,clear sky
551,Bosaso,SO,11.2842,49.1816,73.18,74,56,3.38,broken clouds
552,Blagoyevo,RU,63.3667,47.9167,11.86,97,99,3.83,overcast clouds
553,Mackay,AU,-21.15,149.2,82.69,67,48,20.87,scattered clouds
554,Manavgat,TR,36.7867,31.4431,43.21,60,62,4.05,broken clouds
555,Broome,US,42.2506,-75.833,33.01,75,100,14.97,overcast clouds
556,Begusarai,IN,25.4167,86.1333,51.4,82,0,5.48,clear sky
557,Huilong,CN,31.8111,121.655,46.04,91,100,11.59,overcast clouds
558,Lumeje,AO,-11.55,20.7833,66.04,83,100,3.83,overcast clouds
559,Ihosy,MG,-22.4,46.1167,64.13,94,31,8.7,scattered clouds
560,Sorkjosen,NO,69.8,20.9333,15.71,67,30,12.57,scattered clouds
561,Sitka,US,57.0531,-135.33,42.69,81,100,3.44,overcast clouds
562,Murgab,TM,37.4966,61.9714,39.81,48,10,5.68,clear sky
563,Cedar City,US,37.6775,-113.0619,54.57,15,0,6.91,clear sky
564,Mayo,US,38.8876,-76.5119,55.02,49,0,5.75,clear sky
565,Batagay,RU,67.6333,134.6333,-23.67,93,85,3.2,overcast clouds
566,Lufilufi,WS,-13.8745,-171.5986,91.18,78,47,11.61,light rain
567,Paengaroa,NZ,-37.8167,176.4167,72.9,71,100,17.0,overcast clouds
568,Kattivakkam,IN,13.2167,80.3167,79.07,80,13,7.49,few clouds
569,Jasper,US,37.2001,-94.3502,30.87,34,20,6.91,few clouds
570,Amatitan,MX,20.8333,-103.7167,75.16,15,9,1.86,clear sky
571,Rozhyshche,UA,50.9154,25.2691,26.13,93,11,5.48,few clouds
572,Broken Hill,AU,-31.95,141.4333,85.37,25,28,18.7,scattered clouds
573,Tarapur,IN,19.85,72.7,70.92,54,19,6.44,few clouds
574,Pimenta Bueno,BR,-11.6725,-61.1936,73.99,96,99,1.48,heavy intensity rain
575,Bonavista,CA,48.6499,-53.1147,45.12,78,97,26.13,overcast clouds
576,Husavik,IS,66.0449,-17.3389,12.58,87,88,8.99,overcast clouds
577,Elizabeth City,US,36.2946,-76.2511,62.65,54,0,8.05,clear sky
578,Cardston,CA,49.2,-113.3019,41.07,49,9,7.05,clear sky
579,Wuwei,CN,37.9281,102.6414,21.42,73,76,4.54,broken clouds
580,Goya,AR,-29.14,-59.2626,69.84,60,90,8.88,overcast clouds
581,Kaeo,NZ,-35.1,173.7833,75.33,71,85,15.17,overcast clouds
582,Parati,BR,-23.2178,-44.7131,73.11,96,96,1.01,overcast clouds
583,Bingol,TR,38.8847,40.4939,19.58,62,32,7.45,scattered clouds
584,Homer,US,59.6425,-151.5483,36.77,87,75,3.44,broken clouds
585,Kaka,TM,37.3482,59.6143,42.76,85,99,5.41,overcast clouds
586,Sochi,RU,43.6,39.7303,42.89,68,85,2.59,light rain
587,Camacha,PT,33.0833,-16.3333,59.76,77,40,6.91,scattered clouds
588,Mirabad,AF,30.4362,61.8383,49.35,60,35,10.18,scattered clouds
589,San Cristobal,VE,7.7669,-72.225,71.1,62,91,2.21,overcast clouds
590,Iringa,TZ,-7.7667,35.7,58.93,92,100,1.16,overcast clouds
591,Ramona,US,33.0417,-116.8681,86.52,15,0,10.36,clear sky
592,Lamar,US,33.6668,-95.5836,40.51,23,0,9.22,clear sky
593,Cabedelo,BR,-6.9811,-34.8339,81.27,77,61,9.53,broken clouds
594,Whitecourt,CA,54.1502,-115.6855,34.27,92,82,2.06,broken clouds
595,Marsa Matruh,EG,31.3525,27.2453,55.69,74,0,5.55,clear sky
596,Richards Bay,ZA,-28.783,32.0377,71.76,89,0,9.64,clear sky
597,Qaqortoq,GL,60.7167,-46.0333,30.7,94,100,17.02,overcast clouds
598,Iglesias,IT,39.3114,8.535,47.79,94,6,1.63,clear sky
599,Terra Santa,BR,-2.1042,-56.4869,76.5,87,99,2.42,moderate rain
600,Tevaitoa,PF,-16.7833,-151.5,81.52,72,98,12.88,overcast clouds
601,Korem,ET,12.5058,39.5228,51.76,92,84,2.66,broken clouds
602,Lata,PT,40.1629,-8.3327,46.06,96,43,1.3,scattered clouds
603,Bilibino,RU,68.0546,166.4372,-22.85,97,100,1.39,overcast clouds
604,Sawakin,SD,19.1059,37.3321,69.55,58,14,9.53,few clouds
605,Saint-Pierre,RE,-21.3393,55.4781,78.44,83,0,4.61,clear sky
606,Oranjemund,NA,-28.55,16.4333,67.35,81,0,6.89,clear sky
607,Okhotsk,RU,59.3833,143.3,-10.17,78,7,10.51,clear sky
608,Gayeri,BF,12.6497,0.4931,74.66,12,9,8.01,clear sky
609,Tabory,RU,58.5198,64.5495,-11.42,100,93,3.27,overcast clouds
610,Kimbe,PG,-5.5502,150.1429,85.59,65,80,1.86,broken clouds
611,Paita,PE,-5.0892,-81.1144,73.83,76,100,10.31,overcast clouds
612,Rongcheng,CN,30.634,117.8517,41.97,98,100,2.66,overcast clouds
613,La Ronge,CA,55.1001,-105.2842,-14.78,100,38,4.32,scattered clouds
614,Nantucket,US,41.2835,-70.0995,48.31,81,0,16.11,clear sky
615,Letenye,HU,46.433,16.7258,28.06,72,0,2.95,clear sky
616,Khargone,IN,21.8167,75.6,61.88,29,5,4.99,clear sky
617,Maumere,ID,-8.6199,122.2111,79.97,79,100,3.83,overcast clouds
618,Pacific Grove,US,36.6177,-121.9166,83.8,44,0,4.61,clear sky
619,Bonnyville,CA,54.2668,-110.735,16.83,90,76,7.54,broken clouds
620,Kuah,MY,6.3265,99.8432,79.83,76,53,13.4,broken clouds
621,Gubbio,IT,43.3545,12.5725,41.25,72,41,4.45,scattered clouds
622,Havoysund,NO,70.9963,24.6622,31.08,58,91,13.38,light snow
623,Kokopo,PG,-4.352,152.2633,80.83,77,100,4.09,overcast clouds
624,Phuket,TH,8.0,98.25,86.0,100,20,0.0,few clouds
625,Hervey Bay,AU,-25.2986,152.8535,83.03,59,60,19.69,broken clouds
626,Mangrol,IN,21.1167,70.1167,65.75,40,1,10.31,clear sky
627,Adelaide,AU,-34.9333,138.6,91.85,21,0,8.05,clear sky
628,Albania,AL,41.0,20.0,40.39,72,100,5.82,overcast clouds
629,Goundi,TD,9.3627,17.366,77.14,16,19,5.28,few clouds
630,Gamba,GA,-2.65,10.0,77.31,90,95,3.71,light rain
631,Ati,TD,13.2154,18.3353,70.41,12,37,11.32,scattered clouds
632,Asfi,MA,32.2994,-9.2372,56.3,82,33,12.62,scattered clouds
633,Boyabat,TR,41.4689,34.7667,36.57,84,98,3.06,overcast clouds
634,Gunnedah,AU,-30.9833,150.25,74.82,37,0,9.53,clear sky
635,Agadir,MA,30.4202,-9.5982,54.05,58,19,4.52,few clouds
636,Vytegra,RU,61.0064,36.4481,24.22,89,100,10.45,overcast clouds
637,Galesong,ID,-5.3166,119.3661,75.22,84,100,6.85,overcast clouds
638,Storsteinnes,NO,69.2408,19.2344,17.38,84,38,5.95,scattered clouds
639,Roquetas De Mar,ES,36.7642,-2.6148,55.62,76,15,1.3,few clouds
640,Bangui,CF,4.3612,18.555,76.59,26,81,2.28,broken clouds
641,Heze,CN,35.2431,115.4411,37.53,68,100,2.64,overcast clouds
642,Praya,CV,14.9215,-23.5087,73.56,67,100,18.5,overcast clouds
643,Bardiyah,LY,31.7561,25.0865,54.36,72,0,6.78,clear sky
644,Cartagena,CO,10.3997,-75.5144,80.22,83,20,9.22,few clouds
645,Mocuba,MZ,-16.8392,36.9856,71.13,99,89,3.49,light rain
646,Muncar,ID,-8.4333,114.3333,76.48,90,100,4.29,overcast clouds
647,Mokhsogollokh,RU,61.4681,128.9203,-21.17,97,98,3.4,overcast clouds
648,Krasnoselkup,RU,65.7,82.4667,-8.5,88,5,12.21,clear sky
649,Abha,SA,18.2164,42.5053,53.85,54,0,8.05,clear sky
650,Mandla,IN,22.6,80.3833,52.16,40,1,2.53,clear sky
651,Chipiona,ES,36.7366,-6.437,55.62,82,0,10.36,clear sky
652,Pandan,PH,14.0453,124.1694,77.09,88,100,15.01,overcast clouds
653,Cabo Rojo,PR,18.0866,-67.1457,76.68,83,61,8.57,broken clouds
654,Hoshcha,UA,50.6003,26.6744,26.24,85,8,5.01,clear sky
655,Half Moon Bay,US,37.4636,-122.4286,83.44,44,20,4.61,few clouds
656,Kampot,KH,10.6167,104.1833,77.05,80,30,2.91,scattered clouds
657,Wanning,CN,18.8003,110.3967,70.18,77,100,5.66,overcast clouds
658,Cacahoatan,MX,14.9833,-92.1667,81.34,65,29,2.55,scattered clouds
659,Vyartsilya,RU,62.1764,30.693,14.23,99,83,2.37,broken clouds
660,Esmeraldas,BR,-19.7625,-44.3139,70.66,96,50,3.85,scattered clouds
661,Udimskiy,RU,61.1417,45.9144,9.57,98,100,4.88,overcast clouds
662,Miyako,JP,39.6367,141.9525,36.7,52,49,3.47,scattered clouds
663,Newport,GB,51.5877,-2.9984,50.86,91,100,3.0,light rain
664,Harrisburg,US,40.2737,-76.8844,46.06,53,0,10.0,clear sky
665,Sarkand,KZ,45.41,79.9186,17.73,80,100,5.28,overcast clouds
666,Calahorra,ES,42.3051,-1.9652,46.31,83,89,2.98,overcast clouds
667,Harper,LR,4.375,-7.7169,78.57,86,29,6.55,scattered clouds
668,Catamarca,AR,-28.4696,-65.7852,71.78,68,81,3.0,broken clouds
669,Iguguno,TZ,-4.5697,34.6275,62.17,94,100,3.6,overcast clouds
670,Lokossa,BJ,6.6387,1.7167,78.55,82,73,6.2,broken clouds
671,Namatanai,PG,-3.6667,152.4333,83.79,70,100,4.07,light rain
672,Santa Vitoria Do Palmar,BR,-33.5189,-53.3681,67.57,95,92,7.83,overcast clouds
673,Aksha,RU,50.2814,113.2867,-15.75,99,99,1.66,overcast clouds
674,Fort Madison,US,40.6298,-91.3151,20.12,34,5,7.63,clear sky
675,Banyo,CM,6.75,11.8167,66.2,21,73,2.51,broken clouds
676,Qianjiang,CN,30.4151,112.8859,38.89,88,100,0.94,overcast clouds
677,Hovd,MN,48.0056,91.6419,-16.42,85,72,1.81,broken clouds
678,Bereznik,RU,62.8551,42.7072,5.85,98,80,3.38,broken clouds
679,Borogontsy,RU,62.6683,131.1683,-22.9,98,100,1.68,overcast clouds
680,Elban,RU,50.1018,136.5094,15.48,93,100,4.32,light snow
681,Sumbe,AO,-11.2061,13.8437,75.78,78,85,7.09,overcast clouds
682,Palana,RU,59.1167,159.9667,-3.39,87,32,4.83,scattered clouds
683,Sampit,ID,-2.5333,112.95,73.74,93,100,2.04,overcast clouds
684,Kapit,MY,2.0167,112.9333,72.19,100,100,0.98,overcast clouds
685,Augusto Correa,BR,-1.0217,-46.635,75.15,95,48,2.66,scattered clouds
